{
"type": "FeatureCollection",
"name": "L_train_stops",
"crs": { "type": "name", "properties": { "name": "urn:ogc:def:crs:OGC:1.3:CRS84" } },
"features": [
{ "type": "Feature", "properties": { "line": "L", "name": "Lorimer St", "notes": "L-all times", "objectid": "72", "url": "http:\/\/web.mta.info\/nyct\/service\/" }, "geometry": { "type": "Point", "coordinates": [ -73.950247999969719, 40.714072000647171 ] } },
{ "type": "Feature", "properties": { "line": "L", "name": "Sutter Ave", "notes": "L-all times", "objectid": "73", "url": "http:\/\/web.mta.info\/nyct\/service\/" }, "geometry": { "type": "Point", "coordinates": [ -73.901916000420798, 40.669145000613973 ] } },
{ "type": "Feature", "properties": { "line": "L", "name": "Wilson Ave", "notes": "L-all times", "objectid": "74", "url": "http:\/\/web.mta.info\/nyct\/service\/" }, "geometry": { "type": "Point", "coordinates": [ -73.903958604918643, 40.688866542460239 ] } },
{ "type": "Feature", "properties": { "line": "L", "name": "1st Ave", "notes": "L-all times", "objectid": "146", "url": "http:\/\/web.mta.info\/nyct\/service\/" }, "geometry": { "type": "Point", "coordinates": [ -73.981680874891282, 40.730974975800663 ] } },
{ "type": "Feature", "properties": { "line": "L", "name": "Grand St", "notes": "L-all times", "objectid": "149", "url": "http:\/\/web.mta.info\/nyct\/service\/" }, "geometry": { "type": "Point", "coordinates": [ -73.94049699874644, 40.711576000648229 ] } },
{ "type": "Feature", "properties": { "line": "L", "name": "Graham Ave", "notes": "L-all times", "objectid": "150", "url": "http:\/\/web.mta.info\/nyct\/service\/" }, "geometry": { "type": "Point", "coordinates": [ -73.943943998690372, 40.714575998363635 ] } },
{ "type": "Feature", "properties": { "line": "L", "name": "Bedford Ave", "notes": "L-all times", "objectid": "151", "url": "http:\/\/web.mta.info\/nyct\/service\/" }, "geometry": { "type": "Point", "coordinates": [ -73.95666499806525, 40.71717399858899 ] } },
{ "type": "Feature", "properties": { "line": "L", "name": "Montrose Ave", "notes": "L-all times", "objectid": "152", "url": "http:\/\/web.mta.info\/nyct\/service\/" }, "geometry": { "type": "Point", "coordinates": [ -73.939792847135038, 40.707391064384552 ] } },
{ "type": "Feature", "properties": { "line": "L", "name": "Atlantic Ave", "notes": "L-all times", "objectid": "194", "url": "http:\/\/web.mta.info\/nyct\/service\/" }, "geometry": { "type": "Point", "coordinates": [ -73.903096999540082, 40.675344666408051 ] } },
{ "type": "Feature", "properties": { "line": "L", "name": "Halsey St", "notes": "L-all times", "objectid": "211", "url": "http:\/\/web.mta.info\/nyct\/service\/" }, "geometry": { "type": "Point", "coordinates": [ -73.903934001186315, 40.695518001148777 ] } },
{ "type": "Feature", "properties": { "line": "L", "name": "Myrtle - Wyckoff Aves", "notes": "L-all times", "objectid": "212", "url": "http:\/\/web.mta.info\/nyct\/service\/" }, "geometry": { "type": "Point", "coordinates": [ -73.910975718264694, 40.699471062427136 ] } },
{ "type": "Feature", "properties": { "line": "L", "name": "Livonia Ave", "notes": "L-all times", "objectid": "216", "url": "http:\/\/web.mta.info\/nyct\/service\/" }, "geometry": { "type": "Point", "coordinates": [ -73.900562372260566, 40.664057270946437 ] } },
{ "type": "Feature", "properties": { "line": "L", "name": "Canarsie - Rockaway Pkwy", "notes": "L-all times", "objectid": "219", "url": "http:\/\/web.mta.info\/nyct\/service\/" }, "geometry": { "type": "Point", "coordinates": [ -73.901850000172871, 40.646653667395277 ] } },
{ "type": "Feature", "properties": { "line": "L", "name": "E 105th St", "notes": "L-all times", "objectid": "220", "url": "http:\/\/web.mta.info\/nyct\/service\/" }, "geometry": { "type": "Point", "coordinates": [ -73.899547693887243, 40.650468785446989 ] } },
{ "type": "Feature", "properties": { "line": "L", "name": "New Lots Ave", "notes": "L-all times", "objectid": "223", "url": "http:\/\/web.mta.info\/nyct\/service\/" }, "geometry": { "type": "Point", "coordinates": [ -73.899277960571425, 40.658914773685268 ] } },
{ "type": "Feature", "properties": { "line": "L", "name": "DeKalb Ave", "notes": "L-all times", "objectid": "235", "url": "http:\/\/web.mta.info\/nyct\/service\/" }, "geometry": { "type": "Point", "coordinates": [ -73.918232002197229, 40.703692999616443 ] } },
{ "type": "Feature", "properties": { "line": "L", "name": "Bushwick - Aberdeen", "notes": "L-all times", "objectid": "282", "url": "http:\/\/web.mta.info\/nyct\/service\/" }, "geometry": { "type": "Point", "coordinates": [ -73.905261763051044, 40.682860625511843 ] } },
{ "type": "Feature", "properties": { "line": "L", "name": "Broadway Junction", "notes": "L-all times", "objectid": "283", "url": "http:\/\/web.mta.info\/nyct\/service\/" }, "geometry": { "type": "Point", "coordinates": [ -73.903117579206835, 40.678456248428688 ] } },
{ "type": "Feature", "properties": { "line": "L", "name": "Jefferson St", "notes": "L-all times", "objectid": "305", "url": "http:\/\/web.mta.info\/nyct\/service\/" }, "geometry": { "type": "Point", "coordinates": [ -73.922913000031201, 40.706606665988716 ] } },
{ "type": "Feature", "properties": { "line": "L", "name": "Morgan Ave", "notes": "L-all times", "objectid": "306", "url": "http:\/\/web.mta.info\/nyct\/service\/" }, "geometry": { "type": "Point", "coordinates": [ -73.933147000242087, 40.70615166680728 ] } },
{ "type": "Feature", "properties": { "line": "L", "name": "3rd Ave", "notes": "L-all times", "objectid": "383", "url": "http:\/\/web.mta.info\/nyct\/service\/" }, "geometry": { "type": "Point", "coordinates": [ -73.985750001120934, 40.732690999716617 ] } },
{ "type": "Feature", "properties": { "line": "L", "name": "Union Sq - 14th St", "notes": "L-all times", "objectid": "384", "url": "http:\/\/web.mta.info\/nyct\/service\/" }, "geometry": { "type": "Point", "coordinates": [ -73.990669769018183, 40.734763312179233 ] } },
{ "type": "Feature", "properties": { "line": "L", "name": "6th Ave", "notes": "L-all times", "objectid": "442", "url": "http:\/\/web.mta.info\/nyct\/service\/" }, "geometry": { "type": "Point", "coordinates": [ -73.997750788747808, 40.737741469810523 ] } },
{ "type": "Feature", "properties": { "line": "L", "name": "8th Ave", "notes": "L-all times", "objectid": "443", "url": "http:\/\/web.mta.info\/nyct\/service\/" }, "geometry": { "type": "Point", "coordinates": [ -74.002578001047624, 40.739776666381992 ] } }
]
}
